Unnamed: 0,어린이집명,시도명,시군구명,어린이집유형구분,정원수,보육교직원수,소재지도로명주소,어린이집전화번호,어린이집팩스번호,보육실수,놀이터수,CCTV설치수,통학차량운영여부,홈페이지주소,데이터기준일자,lon,lat,UTM-K_위도변환,UTM-K_경도변환
1,the KIDS 대방 어린이집,서울특별시,동작구,직장,49,21,서울특별시 동작구 보라매로5가길 24 사옥2층,02-849-8555,02-849-8556,5,0,24,미운영,www.daebang.thekids-hyundai.com,2020-03-27,126.9239177,37.4905172,543454.3754,193271.5376
2,YWCA또래또어린이집,서울특별시,동작구,민간,69,17,서울특별시 동작구 국사봉1길 100 (상도동),02-821-0210,--,6,1,8,운영(신고),http://iseoul.seoul.go.kr/homepage/main.do?stCode=11590000079,2020-03-27,126.931438,37.4970648,544180.5626,193937.137
3,강남방과후교실어린이집,서울특별시,동작구,법인·단체등,39,5,"서울특별시 동작구 만양로 76 2층 (노량진동,강남교회)",02-814-7616,02-817-9571,2,0,3,미운영,http://iseoul.seoul.go.kr/portal/mainCall.do,2020-03-27,126.9450783,37.5102931,545647.9423,195144.1908
4,건영어린이집,서울특별시,동작구,가정,19,7,"서울특별시 동작구 만양로 26 103동 102호(노량진동, 건영)",02-821-2008,02-821-2008,3,2,4,미운영,,2020-03-27,126.949474,37.5073471,545320.7562,195532.6536
5,구립가온어린이집,서울특별시,동작구,국공립,79,11,서울특별시 동작구 상도로15가길 16,02-3280-0217,02-3280-0218,5,1,9,미운영,,2020-03-27,126.9323514,37.5019405,544721.6437,194018.2969
6,구립강남어린이집,서울특별시,동작구,국공립,74,10,서울특별시 동작구 만양로12길 5-12,02-814-7615,02-812-7615,6,1,15,미운영,,2020-03-27,126.9457806,37.5098975,545603.9997,195206.2582
7,구립강마루어린이집,서울특별시,동작구,국공립,69,8,서울특별시 동작구 현충로 52 흑석아크로리버하임 아파트,02-814-3200,02-814-3202,4,1,7,미운영,,2020-03-27,126.9613564,37.5109104,545715.7391,196583.4197
8,구립고은어린이집,서울특별시,동작구,국공립,79,11,서울특별시 동작구 신대방2길 42-10,02-834-1097,02-834-1095,6,1,8,미운영,http://iseoul.seoul.go.kr/homepage/main.do?stCode=11590000006,2020-03-27,126.9126144,37.4894135,543332.7471,192271.7979
9,구립꿈나무어린이집,서울특별시,동작구,국공립,99,15,서울특별시 동작구 여의대방로36길 11 (대방동),02-821-5615,02-821-5565,6,1,8,미운영,http://iseoul.seoul.go.kr/homepage/main.do?stCode=11590000061,2020-03-27,126.925909,37.5020201,544730.9072,193448.6464
10,구립꿈담어린이집,서울특별시,동작구,국공립,39,6,서울특별시 동작구 상도로47아길 44-1 2층,02-813-4246,--,3,0,12,미운영,,2020-03-27,126.9535151,37.504183,544969.3975,195889.7813
11,구립꿈마루어린이집,서울특별시,동작구,국공립,30,11,서울특별시 동작구 현충로 52 흑석아크로리버하임 아파트 관리동,02-6277-6990,02-6277-6992,3,0,5,미운영,https://iseoul.seoul.go.kr/homepage/main.do?stCode=11590000431,2020-03-27,126.9611496,37.5101834,545635.0589,196565.1026
12,구립나래어린이집,서울특별시,동작구,국공립,82,13,서울특별시 동작구 상도로15라길 24 나래어린이집,02-823-3412,02-823-3418,6,1,23,미운영,http://iseoul.seoul.go.kr/homepage/main.do?stCode=11590000047,2020-03-27,126.9401384,37.504402,544994.372,194707.0219
13,구립노량진2동어린이집,서울특별시,동작구,국공립,79,14,서울특별시 동작구 장승배기로15길 21 (노량진동),02-821-4756,02-813-4756,7,3,8,미운영,http://iseoul.seoul.go.kr/homepage/main.do?stCode=11590000037,2020-03-27,126.9390356,37.506879,545269.3498,194609.6902
14,구립노량진어린이집,서울특별시,동작구,국공립,49,13,서울특별시 동작구 노량진로14길 44 노량진동 84-33,02-822-7373,02-822-7376,5,0,16,미운영,http://iseoul.seoul.go.kr/homepage/main.do?stCode=11590000060,2020-03-27,126.9426157,37.5116713,545801.0348,194926.5575
15,구립노블어린이집,서울특별시,동작구,국공립,95,20,서울특별시 동작구 만양로 6 e편한세상상도노빌리티 관리동,02-812-0668,02-812-0669,7,1,14,미운영,https://iseoul.seoul.go.kr/homepage/main.do?stCode=11590000429,2020-03-27,126.9477205,37.505273,545090.6424,195377.4869
16,구립대방보듬이나눔이어린이집,서울특별시,동작구,국공립,84,14,서울특별시 동작구 대방동15길 10,02-822-1257,02-823-1257,6,1,12,미운영,http://www.childcare.go.kr,2020-03-27,126.9246246,37.5028877,544827.2898,193335.153
17,구립도담어린이집,서울특별시,동작구,국공립,19,9,서울특별시 동작구 여의대방로10길 59 보라매파크빌아파트 104동 102호,02-831-5041,02-831-5042,3,0,5,미운영,http://iseoul.seoul.go.kr/homepage/main.do?stCode=11590000407,2020-03-27,126.9154499,37.4944036,543886.3539,192523.0612
18,구립도레미어린이집,서울특별시,동작구,국공립,95,13,서울특별시 동작구 흑석로13길 25,02-813-2031,02-813-2032,7,1,18,미운영,,2020-03-27,126.9591277,37.5098032,545592.9373,196386.3212
19,구립둥지어린이집,서울특별시,동작구,국공립,47,9,서울특별시 동작구 사당로14길 20 둥지어린이집 (사당동),02-597-0912,02-597-6512,4,1,6,미운영,http://iseoul.seoul.go.kr/homepage/main.do?stCode=11590000021,2020-03-27,126.9713336,37.4832671,542647.3771,197464.5953
20,구립라온어린이집,서울특별시,동작구,국공립,57,18,서울특별시 동작구 동작대로17길 28 (사당동),02-522-5298,02-588-5298,6,2,11,미운영,http://iseoul.seoul.go.kr/homepage/main.do?stCode=11590000255,2020-03-27,126.9787548,37.4830324,542621.1545,198120.9587
21,구립로미어린이집,서울특별시,동작구,국공립,74,11,서울특별시 동작구 만양로 19,02-3280-3535,02-3280-3636,5,1,7,미운영,http://iseoul.seoul.go.kr/homepage/main.do?stCode=11590000396,2020-03-27,126.9450215,37.5074939,545337.2698,195138.9874
22,구립로야어린이집,서울특별시,동작구,국공립,88,22,서울특별시 동작구 상도로62길 87 (상도동),02-822-2246,02-826-2246,7,3,16,미운영,http://iseoul.seoul.go.kr/homepage/main.do?stCode=11590000010,2020-03-27,126.9516319,37.4976747,544247.1443,195722.8965
23,구립로이어린이집,서울특별시,동작구,국공립,30,10,서울특별시 동작구 사당로23길 112,02-535-5277,02-535-5279,3,1,5,미운영,http://iseoul.seoul.go.kr/homepage/main.do?stCode=11590000425,2020-03-27,126.9732616,37.4877657,543146.612,197635.2594
24,구립롯데키즈어린이집,서울특별시,동작구,국공립,30,8,서울특별시 동작구 여의대방로10길 38 보라매롯데낙천대아파트 관리동 1층,02-847-5333,02-847-5336,3,1,6,미운영,,2020-03-27,126.9131888,37.4943,543875.0377,192323.0968
25,구립리가어린이집,서울특별시,동작구,국공립,20,9,"서울특별시 동작구 사당로27길 130 105동 키즈클럽(사당동,이수역 리가아파트)",02-536-1292,02-536-1295,3,1,5,미운영,http://iseoul.seoul.go.kr/homepage/main.do?stCode=11590000426,2020-03-27,126.9736666,37.4897663,543368.6422,197671.1396
26,구립문화어린이집,서울특별시,동작구,국공립,79,13,서울특별시 동작구 사당로13길 24 (사당동),02-534-0175,02-534-0196,7,1,14,미운영,http://iseoul.seoul.go.kr/homepage/main.do?stCode=11590000004,2020-03-27,126.972394,37.4851433,542855.5824,197558.4436
27,구립바르니어린이집,서울특별시,동작구,국공립,19,8,서울특별시 동작구 사당로17길 52 대림아파트 3-106,02-582-4701,02-591-4701,3,1,4,미운영,,2020-03-27,126.9725834,37.4867945,543038.8389,197575.2481
28,구립백로어린이집,서울특별시,동작구,국공립,50,10,서울특별시 동작구 장승배기로19라길 51 (상도동),02-816-1031,02-816-1032,5,1,10,미운영,http://iseoul.seoul.go.kr/portal/info/preSchoolList.do,2020-03-27,126.9357762,37.5068605,545267.4882,194321.5013
29,구립백합어린이집,서울특별시,동작구,국공립,20,8,"서울특별시 동작구 동작대로29길 119 110동 105호 (사당동, 극동아파트)",02-596-9117,02-596-9117,4,1,5,미운영,http://iseoul.seoul.go.kr/homepage/main.do?stCode=11590000420,2020-03-27,126.9760224,37.4897954,543371.8162,197879.4816
30,구립보라매어린이집,서울특별시,동작구,국공립,79,15,서울특별시 동작구 여의대방로22길 44 (신대방동),02-826-4503,02-826-4505,5,1,8,미운영,http://iseoul.seoul.go.kr/homepage/main.do?stCode=11590000058,2020-03-27,126.9223621,37.4974933,544228.7438,193134.6042
31,구립비둘기어린이집,서울특별시,동작구,국공립,51,10,서울특별시 동작구 여의대방로44길 47 (대방동),02-817-2903,02-817-2906,4,1,5,미운영,http://iseoul.seoul.go.kr/homepage/main.do?stCode=11590000041,2020-03-27,126.9300803,37.5101302,545630.7421,193818.1544
32,구립사당4동어린이집,서울특별시,동작구,국공립,82,13,서울특별시 동작구 사당로22나길 70,02-581-0010,02-581-0308,5,2,9,미운영,http://iseoul.seoul.go.kr/homepage/main.do?stCode=11590000401,2020-03-27,126.9731106,37.4806245,542354.0373,197621.6786
33,구립사당빛나어린이집,서울특별시,동작구,국공립,79,12,서울특별시 동작구 동작대로29길 118,02-845-6545,02-536-6545,5,1,15,미운영,http://iseoul.seoul.go.kr/homepage/main.do?stCode=11590000414,2020-03-27,126.9766746,37.4909724,543502.4332,197937.1928
34,구립사당어린이집,서울특별시,동작구,국공립,78,11,서울특별시 동작구 사당로27길 190 (사당동),02-533-7155,02-3476-7155,5,2,12,미운영,http://iseoul.seoul.go.kr/homepage/main.do?stCode=11590000039,2020-03-27,126.9722542,37.4906466,543466.3798,197546.2593
35,구립상도3동어린이집,서울특별시,동작구,국공립,75,21,서울특별시 동작구 성대로6가길 5,02-825-9153,02-825-9154,7,1,24,미운영,http://iseoul.seoul.go.kr/homepage/main.do?stCode=11590000402,2020-03-27,126.9329214,37.4986028,544351.1661,194068.4341
36,구립상도4동어린이집,서울특별시,동작구,국공립,69,11,서울특별시 동작구 상도로22길 45 구립상도4동어린이집,02-3280-1145,--,4,1,5,미운영,http://iseoul.seoul.go.kr/homepage/main.do?stCode=11590000403,2020-03-27,126.9373119,37.5012149,544640.8077,194456.8664
37,구립상도어린이집,서울특별시,동작구,국공립,187,34,서울특별시 동작구 양녕로36길 15 (상도동),02-825-0505,02-825-0236,11,2,22,미운영,http://iseoul.seoul.go.kr/homepage/main.do?stCode=11590000028,2020-03-27,126.9464077,37.5024623,544778.7562,195261.2325
38,구립새빛어린이집,서울특별시,동작구,국공립,30,9,서울특별시 동작구 장승배기로11가길 11,02-827-0791,02-827-0793,3,0,7,미운영,http://iseoul.seoul.go.kr/homepage/main.do?stCode=11590000417,2020-03-27,126.9387937,37.5060731,545179.9191,194588.2438
39,구립새싹어린이집,서울특별시,동작구,국공립,91,16,서울특별시 동작구 동작대로29길 119 극동아파트111동 뒤 새싹어린이집,02-537-4216,02-536-4196,5,1,14,미운영,http://iseoul.seoul.go.kr/homepage/main.do?stCode=11590000063,2020-03-27,126.9760224,37.4897954,543371.8162,197879.4816
40,구립샛별어린이집,서울특별시,동작구,국공립,49,11,서울특별시 동작구 성대로27길 12 (상도동),02-823-2482,02-823-2462,4,0,8,미운영,http://childcare.dongjak.seoul.kr/newsta,2020-03-27,126.939114,37.4991803,544414.8888,194616.0693
41,구립선재어린이집,서울특별시,동작구,국공립,84,17,서울특별시 동작구 노량진로32길 62 (본동),02-815-0274,02-814-9418,6,1,12,미운영,childcare.dongjak.seoul.kr/sunjae,2020-03-27,126.9569165,37.5114209,545772.5686,196190.9026
42,구립성대어린이집,서울특별시,동작구,국공립,74,14,서울특별시 동작구 성대로10길 27 성대어린이집 (상도동),02-826-9003,02-816-7666,4,1,12,미운영,www.childcare.dongjak.go.kr/sungde/,2020-03-27,126.9352812,37.4967648,544147.0258,194276.9642
43,구립세움어린이집,서울특별시,동작구,국공립,49,9,서울특별시 동작구 등용로 24-5 세움교회 1층,02-826-5656,02-826-5588,4,0,9,미운영,http://iseoul.seoul.go.kr/portal/info/preSchoolList.do,2020-03-27,126.9358532,37.5064584,545222.8556,194328.279
44,구립스마일어린이집,서울특별시,동작구,국공립,20,8,서울특별시 동작구 성대로11길 42,02-813-2602,--,4,0,7,미운영,http://iseoul.seoul.go.kr/homepage/main.do?stCode=11590000410,2020-03-27,126.9344892,37.4992143,544418.937,194207.1174
45,구립신대방1동어린이집,서울특별시,동작구,국공립,49,8,서울특별시 동작구 신대방1길 44,02-849-4533,02-849-4534,4,0,7,미운영,http://iseoul.seoul.go.kr/homepage/main.do?stCode=11590000397,2020-03-27,126.9091469,37.4864937,543008.978,191964.8266
46,구립아기둥지어린이집,서울특별시,동작구,국공립,19,10,서울특별시 동작구 상도로 421 108동 108호 (관악현대아파트),02-887-7796,02-887-7796,4,0,4,미운영,https://iseoul.seoul.go.kr/homepage/sisulInfo/intro.do?stCode=11590000416,2020-03-27,126.9583387,37.4921791,543636.9208,196315.6968
47,구립아람어린이집,서울특별시,동작구,국공립,19,7,서울특별시 동작구 상도로30길 40 두산위브트레지움아파트 203동 204호,02-822-8620,02-812-8620,4,1,4,미운영,http://iseoul.seoul.go.kr/homepage/main.do?stCode=11590000413,2020-03-27,126.9431098,37.5046975,545027.0057,194969.7737
48,구립아리아어린이집,서울특별시,동작구,국공립,33,11,서울특별시 동작구 보라매로5길 51 102호,02-836-9300,02-836-9301,4,0,6,미운영,http://iseoul.seoul.go.kr/homepage/main.do?stCode=11590000424,2020-03-27,126.9231054,37.4906999,543474.7111,193199.7171
49,구립양지어린이집,서울특별시,동작구,국공립,99,15,서울특별시 동작구 사당로23바길 9 삼성래미안내 구립양지어린이집 (사당동),02-533-9250,02-592-9250,6,1,10,미운영,http://iseoul.seoul.go.kr/homepage/sisulInfo/hrConerList.do?stCode=11590000029,2020-03-27,126.9717632,37.4887896,543260.2901,197502.7752
50,구립연꽃어린이집,서울특별시,동작구,국공립,144,24,서울특별시 동작구 국사봉1길 235-1,02-823-3203,02-823-3205,8,2,14,미운영,http://iseoul.seoul.go.kr/homepage/main.do?stCode=11590000050,2020-03-27,126.9362181,37.4932551,543757.4384,194359.5496
51,구립열린어린이집,서울특별시,동작구,국공립,21,7,서울특별시 동작구 동작대로29길 91,02-594-8153,02-595-8153,3,1,4,미운영,http://iseoul.seoul.go.kr/homepage/main.do?stCode=11590000423,2020-03-27,126.9760224,37.4897954,543371.8162,197879.4816
52,구립예담어린이집,서울특별시,동작구,국공립,181,37,서울특별시 동작구 매봉로 43 예담어린이집 (상도1동 511),02-815-6893,02-815-4990,11,1,32,미운영,http://iseoul.seoul.go.kr/homepage/main.do?stCode=11590000007,2020-03-27,126.9512514,37.506807,545260.7291,195689.7746
53,구립우리어린이집,서울특별시,동작구,국공립,99,14,서울특별시 동작구 솔밭로 74-1 구립우리어린이집 (사당동),02-584-7684,02-581-7684,6,1,9,미운영,http://iseoul.seoul.go.kr/homepage/main.do?stCode=11590000025,2020-03-27,126.967251,37.483017,542619.7371,197103.4994
54,구립은하어린이집,서울특별시,동작구,국공립,82,14,서울특별시 동작구 여의대방로22아길 77,02-821-0421,02-817-7882,5,1,14,미운영,childcare.dongjak.go.kr/eunha/,2020-03-27,126.9250777,37.4958141,544042.1798,193374.592
55,구립이솔어린이집,서울특별시,동작구,국공립,45,10,서울특별시 동작구 서달로 123,02-815-0492,02-815-0493,4,0,10,미운영,,2020-03-27,126.9606547,37.5044978,545004.0484,196521.083
56,구립이수어린이집,서울특별시,동작구,국공립,69,11,서울특별시 동작구 동작대로35길 36 이수어린이집 (사당동),02-591-7634,02-591-7635,6,1,21,미운영,http://iseoul.seoul.go.kr/homepage/main.do?stCode=11590000005,2020-03-27,126.9805873,37.4913838,543548.0147,198283.2261
57,구립장미어린이집,서울특별시,동작구,국공립,19,7,서울특별시 동작구 동작대로29길 115,02-596-1116,02-596-1161,3,0,4,미운영,http://iseoul.seoul.go.kr/homepage/main.do?stCode=11590000421,2020-03-27,126.9760224,37.4897954,543371.8162,197879.4816
58,구립참사랑어린이집,서울특별시,동작구,국공립,156,27,서울특별시 동작구 동작대로17길 37 (사당동),02-582-2072,02-582-2073,9,1,13,미운영,http://iseoul.seoul.go.kr/homepage/main.do?stCode=11590000022,2020-03-27,126.9774988,37.4827683,542591.8688,198009.8642
59,구립큰나무어린이집,서울특별시,동작구,국공립,79,15,서울특별시 동작구 사당로2가길 219 (사당동),02-585-0700,02-585-0703,7,0,8,미운영,http://iseoul.seoul.go.kr/homepage/main.do?stCode=11590000024,2020-03-27,126.9669589,37.4856158,542908.1785,197077.7657
60,구립큰별어린이집,서울특별시,동작구,국공립,94,17,서울특별시 동작구 흑석한강로 28 구립큰별어린이집 (흑석동 336-1번지),02-827-0082,02-827-0086,6,1,11,미운영,http://iseoul.seoul.go.kr/homepage/main.do?stCode=11590000009,2020-03-27,126.9626874,37.5065516,545231.9206,196700.905
61,구립키움어린이집,서울특별시,동작구,국공립,20,9,서울특별시 동작구 매봉로 123 104동 101호,02-2135-6663,02-2135-6669,3,0,4,미운영,http://iseoul.seoul.go.kr/homepage/main.do?stCode=11590000415,2020-03-27,126.9502629,37.509996,545614.713,195602.561
62,구립키즈사랑어린이집,서울특별시,동작구,국공립,27,10,서울특별시 동작구 알마타길 37 관리동 1층,02-3280-0377,02-3280-0377,4,1,5,미운영,http://iseoul.seoul.go.kr/homepage/main.do?stCode=11590000422,2020-03-27,126.9289027,37.5120199,545840.5527,193714.1971
63,구립탑키즈어린이집,서울특별시,동작구,국공립,18,9,서울특별시 동작구 여의대방로36길 17-1,02-825-5867,--,4,0,3,미운영,https://iseoul.seoul.go.kr/homepage/main.do?stCode=11590000411,2020-03-27,126.9235915,37.5051237,545075.5307,193244.0056
64,구립태성어린이집,서울특별시,동작구,국공립,69,12,서울특별시 동작구 여의대방로16길 1,02-832-7799,02-832-7272,4,1,8,미운영,http://iseoul.seoul.go.kr/homepage/main.do?stCode=11590000404,2020-03-27,126.9172248,37.4959749,544060.6082,192680.1726
65,구립푸른솔어린이집,서울특별시,동작구,국공립,32,11,서울특별시 동작구 상도로52길 23 청송경로당 1층,02-822-3383,02-822-3384,3,0,8,미운영,http://iseoul.seoul.go.kr/homepage/main.do?stCode=11590000386,2020-03-27,126.9510101,37.4971763,544191.8569,195667.8831
66,구립한빛어린이집,서울특별시,동작구,국공립,39,11,서울특별시 동작구 상도로30길 40 두산위브트레지움아파트 202동 1층,02-826-8080,02-826-8852,3,0,5,미운영,http://iseoul.seoul.go.kr/homepage/main.do?stCode=11590000408,2020-03-27,126.9431098,37.5046975,545027.0057,194969.7737
67,구립한울어린이집,서울특별시,동작구,국공립,68,17,서울특별시 동작구 보라매로9다길 15,02-821-4645,02-826-2422,6,2,8,미운영,http://iseoul.seoul.go.kr/homepage/main.do?stCode=11590000376,2020-03-27,126.9263376,37.4943064,543874.7568,193485.8746
68,구립해오름어린이집,서울특별시,동작구,국공립,20,8,서울특별시 동작구 상도로 421 관악현대아파트 108동 103호,02-888-8646,02-878-8646,3,0,4,미운영,http://iseoul.seoul.go.kr/homepage/main.do?stCode=11590000409,2020-03-27,126.9583387,37.4921791,543636.9208,196315.6968
69,구립해와별어린이집,서울특별시,동작구,국공립,20,9,서울특별시 동작구 만양로8길 50,02-817-4972,02-811-1312,4,1,4,미운영,http://iseoul.seoul.go.kr,2020-03-27,126.9477571,37.5095412,545564.3561,195380.9861
70,구립흑석어린이집,서울특별시,동작구,국공립,118,21,서울특별시 동작구 서달로 61,02-813-9598,02-813-9599,8,1,10,미운영,http://iseoul.seoul.go.kr/homepage/main.do?stCode=11590000036,2020-03-27,126.9602755,37.4993819,544436.2637,196487.3144
71,꼬마대통령어린이집,서울특별시,동작구,가정,20,6,"서울특별시 동작구 흑석한강로 27 107동 103호 (흑석동 336, 흑석한강푸르지오)",02-537-1990,--,3,0,5,미운영,http://cafe.daum.net/ggoma107,2020-03-27,126.9658614,37.5035423,544897.8205,196981.4217
72,꿈꾸는나무어린이집,서울특별시,동작구,가정,16,1,서울특별시 동작구 국사봉14길 7 궁전빌라 102호 (상도동),02-813-5289,--,3,0,4,미운영,,2020-03-27,126.9325874,37.4945766,543904.3313,194038.5794
73,꿈동산 어린이집,서울특별시,동작구,민간,69,12,서울특별시 동작구 양녕로22가길 39 (상도동),02-824-8115,02-824-8115,12,1,16,운영(신고),http://iseoul.seoul.go.kr/homepage/main.do?stCode=11590000032,2020-03-27,126.9440526,37.4960655,544068.9155,195052.5665
74,꿈동이어린이집,서울특별시,동작구,가정,19,5,서울특별시 동작구 성대로12길 11 성대아파트 102호 (상도동),02-816-8123,02-816-8123,3,0,4,미운영,,2020-03-27,126.9356423,37.4972925,544205.5718,194308.936
75,꿈이룸어린이집,서울특별시,동작구,가정,19,6,서울특별시 동작구 상도로34길 42 동원 베네스트,02-873-3387,02-873-3387,4,0,5,미운영,http://www.childcare.go.kr,2020-03-27,126.945037,37.503342,544876.4614,195140.0887
76,노들어린이집,서울특별시,동작구,가정,18,7,서울특별시 동작구 만양로2길 76 현대씨티빌 102호 (상도동),02-816-0107,02-817-1354,3,1,4,미운영,cafe.daum.net/nodeulkids,2020-03-27,126.9513346,37.5073691,545323.1112,195697.1632
77,노벨어린이집,서울특별시,동작구,민간,79,16,서울특별시 동작구 양녕로26길 27,02-823-9940,02-816-9940,5,1,10,운영(신고),,2020-03-27,126.9444989,37.4972156,544196.5382,195092.1082
78,농심어린이집,서울특별시,동작구,직장,65,19,서울특별시 동작구 여의대방로 112,02-822-6800,02-822-6800,5,1,12,미운영,http://iseoul.seoul.go.kr/homepage/main.do?stCode=11590000394,2020-03-27,126.9192143,37.4966653,544137.0808,192856.1703
79,뉴피터팬어린이집,서울특별시,동작구,가정,20,3,"서울특별시 동작구 만양로 26 104동 106호(노량진동, 건영)",02-826-7828,02-826-7828,3,0,4,미운영,khs11041 @han mail net.,2020-03-27,126.949474,37.5073471,545320.7562,195532.6536
80,늘푸른어린이집,서울특별시,동작구,가정,19,6,"서울특별시 동작구 만양로 19 701동 103호(노량진동, 신동아리버파크)",02-3280-0033,02-3280-0033,3,0,4,미운영,,2020-03-27,126.9447842,37.5079242,545385.0398,195118.0342
81,다솔어린이집,서울특별시,동작구,가정,20,9,서울특별시 동작구 국사봉길 98 신건드림원빌 1층 101호,02-826-9366,02-826-9366,4,0,4,미운영,http://iseoul.seoul.go.kr/homepage/main.do?stCode=11590000371,2020-03-27,126.9314272,37.4956005,544018.045,193936.0636
82,다솜어린이집,서울특별시,동작구,민간,30,6,"서울특별시 동작구 여의대방로 8 102동 105호(신대방동, 우성아파트)",02-847-4447,02-836-5001,5,0,5,미운영,http://www.cyworld.com/dasomkid1,2020-03-27,126.9130405,37.4926776,543694.9845,192309.816
83,다애어린이집,서울특별시,동작구,가정,20,8,서울특별시 동작구 사당로20가길 36-4,02-583-0384,02-583-0384,4,0,6,미운영,http://iseoul.seoul.go.kr/homepage/main.do?stCode=11590000202,2020-03-27,126.9737597,37.4824358,542555.0513,197679.1464
84,다온어린이집,서울특별시,동작구,민간,28,3,서울특별시 동작구 사당로2가길 103 (사당동5동 190-197번지),02-587-5231,02-587-5232,4,0,4,미운영,http://iseoul.seoul.go.kr/homepage/main.do?stCode=11590000115,2020-03-27,126.962807,37.4894567,543334.6047,196710.73
85,대림삐아제어린이집,서울특별시,동작구,가정,20,7,"서울특별시 동작구 여의대방로 250 102동 102호(대방동, 대림아파트)",02-824-7818,02-823-7818,4,0,4,미운영,,2020-03-27,126.9295968,37.5126338,545908.6417,193775.6144
86,대천어린이집,서울특별시,동작구,민간,91,8,서울특별시 동작구 신대방14가길 23 (신대방동),02-847-0456,02-847-0457,6,2,6,운영(신고),,2020-03-27,126.9122724,37.4902267,543423.0297,192241.6363
87,더크는킨더앤어린이집,서울특별시,동작구,민간,37,8,서울특별시 동작구 성대로31길 2 서울시 동작구 성대로 31길 2 (상도동),02-823-0733,02-823-0775,4,0,6,운영(신고),,2020-03-27,126.9406055,37.4998406,544488.0893,194748.0035
88,동광어린이집,서울특별시,동작구,민간,96,15,서울특별시 동작구 성대로1가길 14 (상도동),02-821-1009,02-825-0940,7,2,8,운영(신고),,2020-03-27,126.9351479,37.5014855,544670.9705,194265.5375
89,동작구청어린이집,서울특별시,동작구,직장,35,9,서울특별시 동작구 장승배기로 161 동작구청 47동 2층 2호(노량진동),02-820-1567,02-817-1567,3,1,6,미운영,http://iseoul.seoul.go.kr/homepage/main.do?stCode=11590000254,2020-03-27,126.9397997,37.5124298,545885.3742,194677.644
90,동작방과후교실어린이집,서울특별시,동작구,사회복지법인,20,2,서울특별시 동작구 등용로 47 동작복지관 1층(대방동),02-814-0904,02-821-9114,1,0,1,미운영,,2020-03-27,126.9333367,37.5057081,545139.7366,194105.7165
91,동작이수방과후교실어린이집,서울특별시,동작구,사회복지법인,20,2,서울특별시 동작구 동작대로35차길 7 (사당동),02-592-3720,02-592-3724,1,0,2,미운영,http://www.isuwelfare.or.kr,2020-03-27,126.9768631,37.4930717,543735.4239,197953.9203
92,두산어린이집,서울특별시,동작구,가정,19,5,서울특별시 동작구 상도로30길 39 102-101,02-822-0023,02-822-0023,4,0,6,미운영,,2020-03-27,126.9432338,37.5045694,545012.7817,194980.7292
93,두산위브어린이집,서울특별시,동작구,민간,21,7,서울특별시 동작구 사당로13길 31 관리동 1층,02-536-0066,02-533-4457,3,1,3,미운영,,2020-03-27,126.971224,37.4853746,542881.2846,197454.9732
94,둥지랑어린이집,서울특별시,동작구,가정,19,5,"서울특별시 동작구 서달로 83 102동 102호 (흑석동 329,우리유앤미아파트)",02-3280-2040,02-3280-2040,3,0,6,미운영,"http://cafe,naver.com/dungjirang",2020-03-27,126.9596398,37.5006536,544577.4298,196431.1624
95,뜰이삭어린이집,서울특별시,동작구,민간,51,13,서울특별시 동작구 사당로20다길 1 (사당동),02-585-0042,02-585-0048,6,1,6,미운영,,2020-03-27,126.9743735,37.4816167,542464.1271,197733.4099
96,라엘어린이집,서울특별시,동작구,가정,16,6,서울특별시 동작구 성대로10길 44 (상도동),02-826-4416,--,2,0,2,미운영,,2020-03-27,126.9359041,37.49626,544090.9619,194332.0086
97,래미안트윈파크어린이집,서울특별시,동작구,민간,68,12,"서울특별시 동작구 노량진로23가길 23 관리동 (본동,래미안트윈파크)",02-822-0707,02-822-2707,6,1,8,미운영,,2020-03-27,126.950918,37.513735,546029.664,195660.6973
98,로고스어린이집,서울특별시,동작구,민간,59,11,서울특별시 동작구 성대로6다길 18,02-6085-3302,070-8708-7500,9,2,10,운영(신고),,2020-03-27,126.9319415,37.4974487,544223.1382,193981.6918
99,로뎀나무어린이집,서울특별시,동작구,가정,19,9,"서울특별시 동작구 동작대로29길 91 201동 108호(사당동, 사당우성아파트)",02-6747-7803,02-6747-7803,4,0,4,미운영,,2020-03-27,126.977222,37.487794,543149.6608,197985.5174
100,로뎀어린이집,서울특별시,동작구,가정,20,5,"서울특별시 동작구 양녕로26길 11 A동 102호(상도동, 약수맨션아파트)",02-823-1187,02-823-1187,4,0,4,미운영,,2020-03-27,126.944197,37.4985147,544340.7372,195065.497
101,로사어린이집,서울특별시,동작구,가정,20,6,"서울특별시 동작구 관악로30길 27 102동 102호(사당동, 대우푸르지오아파트)",02-889-0246,--,4,0,5,미운영,http://iseoul.seoul.go.kr/homepage/main.do?stCode=11590000194,2020-03-27,126.9608381,37.4871804,543082.036,196536.4996
102,리틀스텝어린이집,서울특별시,동작구,민간,46,15,서울특별시 동작구 상도로34길 36-13,02-816-1486,02-816-1486,10,0,7,미운영,http://iseoul.seoul.go.kr/homepage/main.do?stCode=11590000351,2020-03-27,126.9443251,37.5035385,544898.3074,195077.1544
103,리틀엔젤어린이집,서울특별시,동작구,가정,17,6,서울특별시 동작구 대방동길 20 은송빌라 102호 (대방동),02-823-0301,02-823-0301,4,0,4,미운영,http://iseoul.seoul.go.kr/homepage/main.do?stCode=11590000166,2020-03-27,126.9278942,37.5011478,544633.9568,193624.1098
104,린아어린이집,서울특별시,동작구,민간,45,8,서울특별시 동작구 상도로53길 70 상도SH빌 관리동1층 (상도동),02-815-2535,02-815-2536,4,0,7,운영(신고),,2020-03-27,126.954303,37.5022216,544751.6733,195959.3421
105,모든삐아제어린이집,서울특별시,동작구,민간,38,6,서울특별시 동작구 상도로 99-7 (상도동),02-821-2292,--,5,0,8,미운영,,2020-03-27,126.9312279,37.5003049,544540.1852,193918.8209
106,무림어린이집,서울특별시,동작구,가정,20,7,서울특별시 동작구 신대방13길 1 (신대방동),02-843-9888,02-847-8012,3,0,3,미운영,,2020-03-27,126.9097197,37.4891724,543306.2297,192015.7709
107,무지개어린이집,서울특별시,동작구,민간,39,2,서울특별시 동작구 성대로6가길 29 (상도동),02-812-6557,--,3,0,2,운영(신고),,2020-03-27,126.933186,37.4977312,544254.4131,194091.7633
108,미래연 어린이집,서울특별시,동작구,민간,51,11,서울특별시 동작구 사당로16길 82 (사당동),02-521-2662,02-523-9750,4,1,10,운영(신고),,2020-03-27,126.971445,37.4802199,542309.1754,197474.3455
109,별초롱어린이집,서울특별시,동작구,가정,18,7,서울특별시 동작구 만양로1길 14 102호(상도2동 상명하이츠빌),02-812-5009,02-812-5009,4,0,4,미운영,,2020-03-27,126.946703,37.5062349,545197.4514,195287.5808
110,본동어린이집,서울특별시,동작구,가정,19,4,"서울특별시 동작구 매봉로 134 7동 103호 (본동,신동아아파트)",02-822-8880,02-822-8880,4,0,4,미운영,,2020-03-27,126.9513889,37.5094444,545553.4404,195702.0832
111,브라운스톤어린이집,서울특별시,동작구,가정,19,6,"서울특별시 동작구 상도로31길 19 104동 101호(상도동, 브라운스톤상도아파트)",02-823-0101,02-823-0102,3,0,4,미운영,,2020-03-27,126.9437801,37.5060138,545173.0625,195029.1289
112,사과나무어린이집,서울특별시,동작구,가정,20,6,"서울특별시 동작구 동작대로29길 91 406동 104호(사당동, 신동아4차아파트)",02-599-5466,--,3,0,3,미운영,http://iseoul.seoul.go.kr/portal/mainCall.do,2020-03-27,126.9760224,37.4897954,543371.8162,197879.4816
113,사랑가득어린이집,서울특별시,동작구,가정,19,6,"서울특별시 동작구 만양로 19 703동 113호(노량진동, 신동아리버파크)",02-3280-1888,02-3280-1888,4,0,4,미운영,,2020-03-27,126.9447842,37.5079242,545385.0398,195118.0342
114,산들어린이집,서울특별시,동작구,민간,45,10,서울특별시 동작구 국사봉길 86-6,02-815-9440,070-8220-9440,5,0,6,운영(신고),,2020-03-27,126.9306921,37.4962381,544088.8579,193871.1103
115,삼광어린이집,서울특별시,동작구,법인·단체등,62,11,서울특별시 동작구 동작대로17길 33-8,02-2038-2822,070-4009-2828,5,3,8,운영(신고),http://iseoul.seoul.go.kr/homepage/main.do?stCode=11590000389,2020-03-27,126.9778707,37.4825309,542565.5127,198042.751
116,삼성꼬마숲어린이집,서울특별시,동작구,민간,26,8,서울특별시 동작구 매봉로 123 삼성래미안단지내 (본동),02-821-5288,02-821-5289,4,1,6,미운영,,2020-03-27,126.9501124,37.5098086,545593.9211,195589.2438
117,삼성짐키드어린이집,서울특별시,동작구,민간,56,10,서울특별시 동작구 상도로53길 8 삼성래미안3차아파트 단지내 삼성짐키드어린이집 (상도동),02-813-3332,02-813-3310,5,0,8,미운영,,2020-03-27,126.9546477,37.4987708,544368.6644,195989.6369
118,삼정어린이집,서울특별시,동작구,가정,12,2,서울특별시 동작구 보라매로5길 5 보라매우성아파트 206호 (신대방동),02-847-9085,--,3,2,4,미운영,,2020-03-27,126.9252545,37.4923207,543654.4456,193389.9187
119,상도복지관어린이집,서울특별시,동작구,사회복지법인,63,10,서울특별시 동작구 상도로39가길 7 상도복지관어린이집 (상도동),02-825-4875,02-825-4878,4,0,8,미운영,http://cafe.daum.net/sd4875,2020-03-27,126.9496379,37.5024523,544777.4885,195546.8544
120,상도아이파크어린이집,서울특별시,동작구,가정,19,6,서울특별시 동작구 장승배기로 26 아이파크상도아파트 101-101,02-815-6101,02-815-6101,4,0,15,미운영,,2020-03-27,126.9425582,37.5006811,544581.2668,194920.7292
121,상떼빌키즈어린이집,서울특별시,동작구,민간,76,17,서울특별시 동작구 신대방1가길 38 동작 상떼빌아파트 101동 상떼빌어린이집 (신대방동),02-3289-1246,02-3289-1248,6,1,14,미운영,http://iseoul.seoul.go.kr/homepage/main.do?stCode=11590000223,2020-03-27,126.9071323,37.4876225,543134.4338,191786.7761
122,색동원어린이집,서울특별시,동작구,가정,17,6,서울특별시 동작구 사당로2자길 38 (사당동) 102,02-535-0095,02-595-3383,4,0,6,미운영,,2020-03-27,126.9645128,37.4884291,543220.4964,196861.5444
123,샤론어린이집,서울특별시,동작구,가정,19,5,"서울특별시 동작구 동작대로39가길 55 104동 103호(동작동, 금강케이씨씨아파트)",02-537-9547,02-537-9547,3,0,4,미운영,,2020-03-27,126.9785988,37.4942446,543865.5641,198107.4441
124,서울특별시립보라매병원어린이집,서울특별시,동작구,직장,39,12,서울특별시 동작구 보라매로5길 20 시립보라매병원 본관3층 (신대방동),02-870-2935,02-870-2936,3,1,10,미운영,,2020-03-27,126.9246093,37.4933373,543767.3204,193332.9511
125,성덕어린이집,서울특별시,동작구,민간,49,9,서울특별시 동작구 등용로 27 (상도동),02-812-6127,--,4,0,4,운영(신고),http://iseoul.seoul.go.kr/homepage/main.do?stCode=11590000347,2020-03-27,126.9355752,37.5056477,545132.8951,194303.6372
126,성모어린이집,서울특별시,동작구,가정,19,6,서울특별시 동작구 만양로 19 신동아리버파크 708-101,02-822-1240,02-6101-1240,3,0,5,미운영,kidsnote.com,2020-03-27,126.947647,37.50669,545247.9148,195371.0756
127,성원어린이집,서울특별시,동작구,가정,19,6,서울특별시 동작구 여의대방로44길 9 성원아파트 101동 105호,02-823-5335,--,4,0,5,미운영,http://iseoul.seoul.go.kr/homepage/main.do?stCode=11590000356,2020-03-27,126.9254944,37.5093489,545544.3389,193412.6302
128,성진어린이집,서울특별시,동작구,민간,86,14,서울특별시 동작구 동작대로9길 76 (사당동),02-525-6450,02-584-6451,5,1,5,운영(신고),,2020-03-27,126.9772066,37.4808997,542384.4852,197983.9702
129,수산나어린이집,서울특별시,동작구,가정,20,8,"서울특별시 동작구 여의대방로 28 106동 101호(신대방동, 현대아파트)",02-847-3657,--,4,0,4,미운영,,2020-03-27,126.9123113,37.4949035,543942.0902,192245.56
130,숭실대학교어린이집,서울특별시,동작구,직장,38,10,서울특별시 동작구 상도로67길 20,02-816-4040,--,6,0,14,미운영,,2020-03-27,126.9567791,37.494472,543891.4649,196177.8909
131,숲속어린이집,서울특별시,동작구,민간,62,9,서울특별시 동작구 등용로10길 24 (대방동),02-812-7564,02-822-7573,6,2,7,운영(신고),,2020-03-27,126.9333502,37.5101139,545628.7232,194107.2565
132,숲속천사킨더가르텐어린이집,서울특별시,동작구,민간,61,11,서울특별시 동작구 사당로16자길 15-7 사당4동 300-84,02-597-3383,02-597-3385,8,0,10,운영(신고),,2020-03-27,126.9701657,37.4799904,542283.7391,197361.1849
133,시원키즈스쿨어린이집,서울특별시,동작구,가정,20,4,"서울특별시 동작구 만양로 19 705동 101호(노량진동, 신동아리버파크)",02-6332-7828,02-6332-7828,3,0,4,미운영,,2020-03-27,126.9447842,37.5079242,545385.0398,195118.0342
134,신영어린이집,서울특별시,동작구,민간,68,11,서울특별시 동작구 여의대방로 28 현대아파트 104동 앞,02-845-9874,02-841-9874,6,1,7,미운영,jys8380@hanmail.net,2020-03-27,126.9123113,37.4949035,543942.0902,192245.56
135,실로암어린이집,서울특별시,동작구,민간,37,6,서울특별시 동작구 성대로6마길 8-18,02-821-6934,02-821-6934,4,0,4,미운영,,2020-03-27,126.9345023,37.495586,544016.242,194207.9956
136,쑥쑥어린이집,서울특별시,동작구,가정,19,6,"서울특별시 동작구 여의대방로 250 102동 108호(대방동, 대림아파트)",02-6264-7116,02-6264-7117,4,0,4,미운영,http://iseoul.seoul.go.kr/homepage/main.do?stCode=11590000096,2020-03-27,126.9295968,37.5126338,545908.6417,193775.6144
137,아띠어린이집,서울특별시,동작구,가정,19,7,"서울특별시 동작구 양녕로26길 42 101동 103호(상도동, 롯데캐슬비엔)",02-3280-0127,02-821-3370,4,0,4,미운영,http://iseoul.seoul.go.kr/homepage/main.do?stCode=11590000226,2020-03-27,126.9433082,37.496515,544118.8435,194986.7692
138,아렌어린이집,서울특별시,동작구,가정,12,6,서울특별시 동작구 양녕로26길 64 (상도동),02-825-1187,02-825-1186,4,0,3,미운영,,2020-03-27,126.9433915,37.4957919,544038.5844,194994.0871
139,아이나라어린이집,서울특별시,동작구,가정,20,4,"서울특별시 동작구 여의대방로10길 38 106동 102호(신대방동, 롯데낙천대아파트)",02-846-0802,02-846-0802,4,0,4,미운영,,2020-03-27,126.9131888,37.4943,543875.0377,192323.0968
140,아이뜰어린이집,서울특별시,동작구,가정,17,6,서울특별시 동작구 동작대로35길 22,02-592-0660,02--0660,4,0,4,미운영,http://iseoul.seoul.go.kr/homepage/main.do?stCode=11590000361,2020-03-27,126.9812249,37.4910613,543512.21,198339.6056
141,아이비영재어린이집,서울특별시,동작구,민간,63,9,서울특별시 동작구 신대방6길 25 (신대방동),02-845-2658,02-845-0139,6,1,9,미운영,다음까페,2020-03-27,126.911347,37.4890072,543287.7579,192159.6692
142,아이사랑어린이집,서울특별시,동작구,가정,19,6,서울특별시 동작구 사당로17길 52 169-8번지 대림아파트 13동 107호,02-6334-2001,02-6334-2001,4,1,4,미운영,,2020-03-27,126.9725834,37.4867945,543038.8389,197575.2481
143,아이세상어린이집,서울특별시,동작구,민간,39,8,서울특별시 동작구 상도로 107 쌍용스위트닷홈아파트상가아이세상어린이집 (상도동),02-812-6775,02-812-6775,5,0,5,운영(신고),,2020-03-27,126.9327465,37.5015134,544674.216,194053.1991
144,아이숲어린이집,서울특별시,동작구,가정,19,7,서울특별시 동작구 장승배기로4길 9 포스코더샵 아파트 122-101,02-982-6173,02-815-6173,4,0,4,미운영,,2020-03-27,126.9427246,37.5020489,544733.0659,194935.5355
145,아이엠어린이집,서울특별시,동작구,민간,29,11,서울특별시 동작구 여의대방로10길 13 한성아파트단지내 (신대방동),02-835-6046,02-835-6048,4,1,4,미운영,,2020-03-27,126.9153943,37.4955424,544012.7503,192518.258
146,아이조아어린이집,서울특별시,동작구,가정,19,4,서울특별시 동작구 상도로 421 관악현대아파트 107동 107호,02-825-7468,02-825-7468,4,0,5,미운영,,2020-03-27,126.9583387,37.4921791,543636.9208,196315.6968
147,애스톤파크어린이집,서울특별시,동작구,민간,49,10,서울특별시 동작구 상도로 346-2 애스톤파크 관리동,02-6140-9114,02-6140-9114,5,0,7,미운영,seoul.seoul.go.kr,2020-03-27,126.9491026,37.496504,544117.3298,195499.1648
148,애플트리에듀센터어린이집,서울특별시,동작구,민간,79,14,서울특별시 동작구 사당로9길 11-13 (사당3동 220-24),02-532-7040,02-532-5689,6,1,14,운영(신고),,2020-03-27,126.9704719,37.4860936,542961.1047,197388.4805
149,에덴어린이집,서울특별시,동작구,가정,15,3,서울특별시 동작구 성대로6길 27 (상도동),02-821-4359,02-821-4359,3,0,3,미운영,,2020-03-27,126.9317978,37.4985665,544347.2086,193969.0745
150,에코비어린이집,서울특별시,동작구,가정,17,7,서울특별시 동작구 상도로 346-1 상도엠코아파트 108동 105호,02-822-2007,02-822-2007,3,0,4,미운영,,2020-03-27,126.9491026,37.496504,544117.3298,195499.1648
151,엘프어린이집,서울특별시,동작구,가정,20,6,"서울특별시 동작구 동작대로29길 110 403동 102호(사당동, 신동아4차아파트)",02-594-2505,--,4,0,5,미운영,,2020-03-27,126.9760224,37.4897954,543371.8162,197879.4816
152,엠코어린이집,서울특별시,동작구,가정,17,5,서울특별시 동작구 상도로 346-1 112동 105호,02-816-3003,02-816-3003,4,0,4,미운영,,2020-03-27,126.9510182,37.4954127,543996.1198,195668.4975
153,영성방과후교실,서울특별시,동작구,민간,20,2,서울특별시 동작구 국사봉1길 146 영성교회1층 (상도동),02-821-1146,02-821-1146,2,0,2,미운영,,2020-03-27,126.9331754,37.4955343,544010.5865,194090.6528
154,예꿈아이어린이집,서울특별시,동작구,가정,20,8,"서울특별시 동작구 현충로 119 102동 104호(흑석동, 명수대현대아파트)",02-826-1170,02-825-1170,4,0,4,미운영,http://iseoul.seoul.go.kr/homepage/main.do?stCode=11590000138,2020-03-27,126.9664285,37.5070399,545285.9911,197031.7039
155,예동영재어린이집,서울특별시,동작구,가정,17,5,서울특별시 동작구 사당로2길 64 (사당동),02-3486-1418,--,3,0,3,미운영,https://yd0943.modoo.at/,2020-03-27,126.9644956,37.4902473,543422.2932,196860.0993
156,예쁨어린이집,서울특별시,동작구,가정,20,1,서울특별시 동작구 보라매로 83 신대방아파트 내 (신대방동),02-821-2293,--,5,1,6,미운영,http://iseoul.seoul.go.kr/homepage/main.do?stCode=11590000081,2020-03-27,126.9274209,37.4966813,544138.2654,193581.8764
157,예사랑어린이집,서울특별시,동작구,가정,20,6,서울특별시 동작구 양녕로27길 60 (상도동),02-816-2226,02-812-4839,4,0,4,미운영,,2020-03-27,126.9405367,37.4992615,544423.8206,194741.8793
158,예성어린이집,서울특별시,동작구,민간,52,12,서울특별시 동작구 사당로30길 24 3층 (사당동),02-582-4406,02-587-4406,5,1,7,운영(신고),yesung3567@hanmail.net,2020-03-27,126.9807737,37.4837346,542699.051,198299.5372
159,예슬어린이집,서울특별시,동작구,민간,87,14,서울특별시 동작구 사당로16아길 46 (사당4동 291-5),02-588-8777,02-523-2717,6,1,6,운영(신고),,2020-03-27,126.969393,37.4806255,542354.2487,197292.8633
160,예영어린이집,서울특별시,동작구,가정,19,6,"서울특별시 동작구 여의대방로 22 2동 102호(신대방동, 우성아파트)",02-847-4410,02-847-4410,3,0,4,미운영,,2020-03-27,126.9130405,37.4926776,543694.9845,192309.816
161,예일어린이집,서울특별시,동작구,민간,74,17,서울특별시 동작구 상도로34가길 23 (상도동),02-825-0152,02-814-0152,10,3,11,운영(신고),http://iseoul.seoul.go.kr/homepage/main.do?stCode=11590000033,2020-03-27,126.9447361,37.5042314,544975.1889,195113.5407
162,예주어린이집,서울특별시,동작구,가정,20,8,"서울특별시 동작구 동작대로11길 77 1층 (사당동, 예주어린이집)",02-521-7739,--,3,0,4,미운영,,2020-03-27,126.9786395,37.4813399,542433.3119,198110.7184
163,오즈어린이집,서울특별시,동작구,가정,20,4,"서울특별시 동작구 장승배기로 26 104동 103호(상도동, 아이파크)",02-815-7220,02-815-7220,4,0,6,미운영,,2020-03-27,126.9425582,37.5006811,544581.2668,194920.7292
164,완두콩어린이집,서울특별시,동작구,가정,20,4,서울특별시 동작구 대방동27길 36 (대방동 380-8),02-2296-9888,02--2296-9888,4,0,5,미운영,,2020-03-27,126.9239737,37.5036377,544910.5764,193277.6663
165,우리또래어린이집,서울특별시,동작구,가정,16,6,서울특별시 동작구 상도로22나길 29 101호,02-821-2280,02-821-2280,4,0,4,미운영,,2020-03-27,126.9368797,37.501384,544659.6012,194418.6622
166,우정어린이집,서울특별시,동작구,민간,38,11,"서울특별시 동작구 여의대방로62길 23 102동 102호, 103호",02-834-7307,02-822-7307,5,0,7,미운영,http://iseoul.seoul.go.kr/homepage/main.do?stCode=11590000377,2020-03-27,126.9295856,37.5140949,546070.806,193774.7455
167,유한버들새싹어린이집,서울특별시,동작구,직장,49,7,서울특별시 동작구 노량진로 74 유한양행,02-828-2506,02-828-2058,3,0,12,미운영,,2020-03-27,126.9330865,37.5126517,545910.4032,194084.1421
168,은혜어린이집,서울특별시,동작구,가정,19,5,"서울특별시 동작구 현충로 151 102동 103호 (흑석동 28,한강현대아파트)",02-6264-5948,02-6264-5948,3,0,7,미운영,,2020-03-27,126.9695517,37.50693,545273.6996,197307.8444
169,이레어린이집,서울특별시,동작구,가정,18,8,서울특별시 동작구 사당로10길 1 108호 (사당동),02-523-7830,--,4,0,6,미운영,,2020-03-27,126.9700851,37.4846502,542800.9172,197354.2203
170,이편한세상어린이집,서울특별시,동작구,민간,25,8,서울특별시 동작구 보라매로 70 보라매 E-편한세상아파트 101동 보육시설 (신대방동),02-816-5005,02-816-5009,3,1,4,미운영,http://iseoul.seoul.go.kr/homepage/main.do?stCode=11590000332,2020-03-27,126.9282819,37.495487,544005.6553,193657.9131
171,자람어린이집,서울특별시,동작구,가정,19,7,"서울특별시 동작구 사당로16길 96 102동 101호(사당동, 사당휴먼시아)",02-525-9151,02-525-9151,4,0,4,미운영,http://iseoul.seoul.go.kr/homepage/main.do?stCode=11590000337,2020-03-27,126.9703061,37.4790731,542181.9271,197373.5711
172,자이어린이집,서울특별시,동작구,민간,27,7,서울특별시 동작구 사당로2가길 102,02-587-1139,02-587-1137,3,0,4,미운영,,2020-03-27,126.9624793,37.4886996,543250.588,196681.7155
173,재원몬테소리어린이집,서울특별시,동작구,민간,72,12,서울특별시 동작구 상도로55길 47 (상도동),02-827-0201,02-827-0201,6,1,8,운영(신고),www.jwonchild.com,2020-03-27,126.9583174,37.4979492,544277.3275,196314.0967
174,제일성민어린이집,서울특별시,동작구,민간,99,15,서울특별시 동작구 성대로12길 71 (상도동),02-822-8379,02-822-8379,8,1,11,운영(신고),http://iseoul.seoul.go.kr/homepage/main.do?stCode=11590000117,2020-03-27,126.9380638,37.4952396,543977.583,194522.9161
175,조은세상어린이집,서울특별시,동작구,가정,12,2,서울특별시 동작구 상도로15길 9 (상도동)1층,02-821-2020,--,1,2,1,미운영,,2020-03-27,126.9328191,37.5014167,544663.479,194059.611
176,중앙대학교어린이집,서울특별시,동작구,직장,24,7,서울특별시 동작구 흑석로 84 중앙대학교 307관 1층,02-881-7395,02-822-7395,3,0,6,미운영,http://child.cau.ac.kr/,2020-03-27,126.9571012,37.5050881,545069.7014,196206.9119
177,중앙대학교의료원 어린이집,서울특별시,동작구,직장,20,10,서울특별시 동작구 흑석한강로 27 (흑석동 336) 흑석한강푸르지오 상가D동 B102,02-6332-0998,02-6332-0998,3,0,4,미운영,http://cau.kidswon.com/,2020-03-27,126.9658614,37.5035423,544897.8205,196981.4217
178,중앙어린이집,서울특별시,동작구,가정,19,1,"서울특별시 동작구 동작대로29길 91 305동 111호(사당동, 사당우성아파트)",02-537-5239,02-537-5239,3,0,4,미운영,없음,2020-03-27,126.977222,37.487794,543149.6608,197985.5174
179,지혜샘어린이집,서울특별시,동작구,가정,19,8,"서울특별시 동작구 사당로17길 52 2동102호(사당동,대림아파트)",02-532-6681,02-533-6681,3,0,4,미운영,,2020-03-27,126.9725834,37.4867945,543038.8389,197575.2481
180,천사나라어린이집,서울특별시,동작구,가정,19,7,서울특별시 동작구 여의대방로 30 현대아파트 102동 107호 (신대방1동 707번지),02-831-5306,--,4,0,4,미운영,http://iseoul.seoul.go.kr/homepage/main.do?stCode=11590000370,2020-03-27,126.9123113,37.4949035,543942.0902,192245.56
181,청호어린이집,서울특별시,동작구,민간,59,12,"서울특별시 동작구 서달로2길 29 103동(흑석동, 청호아파트)",02-826-1076,010-8244-1076,5,1,8,운영(신고),www.cafe.naver.com/cheong2012,2020-03-27,126.9630006,37.5013203,544651.3028,196728.3692
182,초록어린이집,서울특별시,동작구,가정,20,7,"서울특별시 동작구 동작대로29길 119 102동 110호(사당동, 극동)",02-6414-2334,02-6414-2334,4,0,5,미운영,,2020-03-27,126.9760224,37.4897954,543371.8162,197879.4816
183,초록햇살어린이집,서울특별시,동작구,민간,51,12,서울특별시 동작구 상도로41길 15 (상도1동),02-816-3334,02-816-3390,9,1,16,운영(신고),sunny kidsor.kr,2020-03-27,126.9528065,37.5061982,545193.09,195827.2386
184,키즈맘어린이집,서울특별시,동작구,민간,30,9,서울특별시 동작구 알마타길 28 (대방동),02-824-0377,--,3,0,4,미운영,,2020-03-27,126.9280729,37.5109572,545722.6623,193640.7433
185,키즈어린이집,서울특별시,동작구,가정,20,7,"서울특별시 동작구 서달로12길 46 (흑석동 93-123,키즈어린이집)",02-812-7880,--,5,0,7,미운영,,2020-03-27,126.9629964,37.5058483,545153.8526,196728.1954
186,킨더어린이집,서울특별시,동작구,가정,19,5,"서울특별시 동작구 매봉로 134 3동 103호(본동, 신동아아파트)",02-817-8478,02-817-8478,4,0,4,미운영,hb6602@hanmail.net,2020-03-27,126.9513889,37.5094444,545553.4404,195702.0832
187,튼튼어린이집,서울특별시,동작구,가정,13,4,"서울특별시 동작구 여의대방로 250 113동 107호(대방동, 대림아파트)",02-813-1140,02-813-1140,4,0,4,미운영,,2020-03-27,126.9295968,37.5126338,545908.6417,193775.6144
188,파랑나무어린이집,서울특별시,동작구,가정,19,4,"서울특별시 동작구 장승배기로4길 9 102동 104호(상도동, 포스코더샵)",02-822-2831,0504-140-0773,4,0,4,미운영,https://bluetree.kidsnote.ac/home/main,2020-03-27,126.9427246,37.5020489,544733.0659,194935.5355
189,푸르미어린이집,서울특별시,동작구,민간,53,12,"서울특별시 동작구 흑석한강로 27 단지 내 푸르미어린이집 (흑석동 336,흑석한강푸르지오아파트)",02-815-5004,070-7163-1126,5,1,8,미운영,,2020-03-27,126.9658614,37.5035423,544897.8205,196981.4217
190,푸른나무 어린이집,서울특별시,동작구,가정,19,4,서울특별시 동작구 여의대방로22라길 25,02-821-7483,02-821-7483,4,0,5,미운영,,2020-03-27,126.9232947,37.4955528,544013.3059,193216.897
191,푸른맘어린이집,서울특별시,동작구,가정,18,1,"서울특별시 동작구 상도로53길 8 306동 102호(상도동, 래미안3차아파트)",02-823-3110,02-6265-5322,4,0,4,미운영,,2020-03-27,126.9546477,37.4987708,544368.6644,195989.6369
192,푸른숲어린이집,서울특별시,동작구,가정,19,4,서울특별시 동작구 보라매로13길 12 (신대방동),02-3280-5373,02-3280-5374,4,0,4,미운영,http://iseoul.seoul.go.kr/homepage/main.do?stCode=11590000086,2020-03-27,126.9268925,37.4960676,544070.1888,193535.0974
193,푸른어린이집,서울특별시,동작구,민간,25,7,서울특별시 동작구 사당로14길 58,02-583-3025,02-588-3025,3,0,4,미운영,,2020-03-27,126.9703588,37.4818404,542489.0591,197378.3291
194,피노키오어린이집,서울특별시,동작구,가정,19,6,"서울특별시 동작구 사당로17길 8 8동 105호(사당동, 대림)",02-595-5791,02-595-9124,3,0,4,미운영,,2020-03-27,126.9731614,37.4860835,542959.9125,197626.3445
195,하나놀이방 어린이집,서울특별시,동작구,가정,20,5,서울특별시 동작구 상도로47가길 16,02-824-3730,--,4,0,4,미운영,,2020-03-27,126.9512093,37.5007182,544584.9527,195685.7019
196,하나어린이집,서울특별시,동작구,민간,69,10,서울특별시 동작구 남부순환로257가길 22 (사당동),02-3471-6593,02-522-6593,6,1,7,운영(신고),hanakwmu@hanmail.net,2020-03-27,126.9749317,37.4779173,542053.5298,197782.6718
197,하늘어린이집,서울특별시,동작구,가정,13,5,서울특별시 동작구 상도로15카길 11,02-812-9057,02-812-9057,3,0,3,미운영,,2020-03-27,126.9360684,37.5050016,545061.1566,194347.1967
198,하람어린이집,서울특별시,동작구,가정,20,7,서울특별시 동작구 동작대로29길 81 대아아파트 601동 108호,02-533-3005,02-533-3005,4,0,5,미운영,http://iseoul.seoul.go.kr/homepage/main.do?stCode=11590000374,2020-03-27,126.9677783,37.488072,543180.7591,197150.3287
199,한강어린이집,서울특별시,동작구,민간,60,12,"서울특별시 동작구 서달로 91 (흑석동, 동부센트레빌2차 관리동)",02-3280-1628,02-3280-1628,5,1,7,미운영,,2020-03-27,126.9583513,37.5024381,544775.5359,196317.3149
200,해나라어린이집,서울특별시,동작구,민간,57,10,서울특별시 동작구 만양로13길 44 태영아트빌 1층,02-6269-8478,02-6269-8478,5,1,6,운영(신고),http://iseoul.seoul.go.kr/homepage/main.do?stCode=11590000353,2020-03-27,126.9768952,37.4790527,542179.4996,197956.3772
201,해맑은어린이집,서울특별시,동작구,가정,19,8,"서울특별시 동작구 동작대로45길 22 105동 104호(동작동, KCC스위첸)",02-3473-4886,02-533-4886,4,0,4,미운영,,2020-03-27,126.9811378,37.4976822,544247.0449,198332.05
202,해사랑어린이집,서울특별시,동작구,민간,49,11,"서울특별시 동작구 흑석한강로 12 흑석동, 한강센트레빌 관리동",02-812-9464,02-813-7992,5,0,8,미운영,,2020-03-27,126.9583513,37.5024381,544775.5359,196317.3149
203,해솔어린이집,서울특별시,동작구,민간,31,7,"서울특별시 동작구 장승배기로4길 9 105동 1층(상도동, 포스코더샵)",02-817-6270,02-815-6270,4,0,5,미운영,http://iseoul.seoul.go.kr/homepage/main.do?stCode=11590000253,2020-03-27,126.9427246,37.5020489,544733.0659,194935.5355
204,해아뜰어린이집,서울특별시,동작구,민간,66,15,서울특별시 동작구 장승배기로3길 1 (상도동),02-821-6927,070-4779-2155,6,2,7,운영(신고),http://iseoul.seoul.go.kr/homepage/main.do?stCode=11590000080,2020-03-27,126.9412075,37.5006966,544583.0608,194801.2951
205,해와달어린이집,서울특별시,동작구,협동,49,9,서울특별시 동작구 성대로16길 67-6,02-824-3753,070-4369-8002,5,0,0,미운영,http://cafe.gongdong.or.kr/hae-dal,2020-03-27,126.9391793,37.4959263,544053.7334,194621.6102
206,해이랑어린이집,서울특별시,동작구,가정,16,6,서울특별시 동작구 대방동길 35,02-813-9323,02-813-9323,4,0,4,미운영,,2020-03-27,126.927209,37.5021642,544746.8107,193563.6088
207,행복한어린이집,서울특별시,동작구,가정,19,7,서울특별시 동작구 성대로3길 13 (상도동),02-827-0331,02-821-7853,4,0,5,미운영,,2020-03-27,126.9331369,37.5002266,544531.3733,194087.6182
208,현대힐스어린이집,서울특별시,동작구,민간,50,9,서울특별시 동작구 동작대로39길 22 이수힐스테이트 아 관리동1층 의무어린이집 109동 앞,02-591-5466,02-591-7688,4,1,5,미운영,http://iseoul.seoul.go.kr/homepage/main.do?stCode=11590000388,2020-03-27,126.9807436,37.4924968,543671.5403,198297.0739
209,휴먼시아어린이집,서울특별시,동작구,가정,19,6,"서울특별시 동작구 사당로16길 96 108동 101호(사당동, 사당휴먼시아아파트)",02-598-0907,02-598-0908,3,0,4,미운영,http://club.cyworld.com/humansia0907,2020-03-27,126.9703061,37.4790731,542181.9271,197373.5711
210,흑석예사랑어린이집,서울특별시,동작구,가정,20,4,"서울특별시 동작구 서달로 158 307호 (흑석동 97-2,명수대상가아파트)",02-817-5132,02-817-5132,4,0,4,미운영,,2020-03-27,126.9622783,37.5072918,545314.0877,196664.7662
